Title,Address,Latitude,Longitude,Found Address,Match Quality,Source
Trinity College,"Jacarandas 126, Bellavista, 56220 Texcoco de Mora, Méx., Mexico",19.4886196,-98.864693,"Jacarandas 126, Bellavista, 56220 Texcoco de Mora, Méx., Mexico",Partial Match,Google
Capital Community College,"Viad. Pdte. Miguel Aleman 213, código 2, Roma Sur, 06760 Ciudad de México, CDMX, Mexico",19.4007223,-99.1675368,"Viad. Pdte. Miguel Aleman 213, código 2, Roma Sur, 06760 Ciudad de México, CDMX, Mexico",Partial Match,Google
University of Hartford,"Texcoco, State of Mexico, Mexico",19.5060382,-98.8831503,"Texcoco, State of Mexico, Mexico",Match,Google
Charter Oak State College,"Aguascalientes, Mexico",21.8852562,-102.2915677,"Aguascalientes, Mexico",Match,Google
Hartford Seminary,"Tula, Hgo., Mexico",20.0535516,-99.3395636,"Tula, Hgo., Mexico",Match,Google